{
"type": "FeatureCollection",
"name": "SEPTAGISRegionalRailStations_2016",
"features": [
{ "type": "Feature", "properties": { "Name": "Airport Line", "At_Street": "Arrivals Rd", "City": "Philadelphia", "County": "Philadelphia", "Field_1": "Airport Line", "Latitude": 39.879077, "Line_Name": "Airport Line", "Longitude": -75.239952, "On_Street": "Terminals E&amp;F", "State": "PA", "Station_Na": "Airport Terminals E&amp;F", "Stop_ID": 90401, "Street_Add": "Airport Terminals E&amp;F", "Zip": "19153" }, "geometry": { "type": "Point", "coordinates": [ -75.239952, 39.8790765 ] } },
{ "type": "Feature", "properties": { "Name": "Airport Line", "At_Street": "Arrivals Rd", "City": "Philadelphia", "County": "Philadelphia", "Field_1": "Airport Line", "Latitude": 39.877385, "Line_Name": "Airport Line", "Longitude": -75.241297, "On_Street": "Terminals C&amp;D", "State": "PA", "Station_Na": "Airport Terminals C&amp;D", "Stop_ID": 90402, "Street_Add": "Airport Terminals C&amp;D", "Zip": "19153" }, "geometry": { "type": "Point", "coordinates": [ -75.2412974, 39.8773846 ] } },
{ "type": "Feature", "properties": { "Name": "Airport Line", "At_Street": "Arrivals Rd", "City": "Philadelphia", "County": "Philadelphia", "Field_1": "Airport Line", "Latitude": 39.8763, "Line_Name": "Airport Line", "Longitude": -75.244758, "On_Street": "Terminal B", "State": "PA", "Station_Na": "Airport Terminal B", "Stop_ID": 90403, "Street_Add": "Airport Terminal B", "Zip": "19153" }, "geometry": { "type": "Point", "coordinates": [ -75.2447582, 39.8763003 ] } },
{ "type": "Feature", "properties": { "Name": "Airport Line", "At_Street": "Arrivals Rd", "City": "Philadelphia", "County": "Philadelphia", "Field_1": "Airport Line", "Latitude": 39.87594, "Line_Name": "Airport Line", "Longitude": -75.24658, "On_Street": "Terminal A", "State": "PA", "Station_Na": "Airport Terminal A", "Stop_ID": 90404, "Street_Add": "Airport Terminal A", "Zip": "19153" }, "geometry": { "type": "Point", "coordinates": [ -75.2465802, 39.8759396 ] } },
{ "type": "Feature", "properties": { "Name": "Airport Line", "At_Street": "84th St", "City": "Philadelphia", "County": "Philadelphia", "Field_1": "Airport Line", "Latitude": 39.89165, "Line_Name": "Airport Line", "Longitude": -75.244991, "On_Street": "Bartram Ave", "State": "PA", "Station_Na": "Eastwick", "Stop_ID": 90405, "Street_Add": "8511 Bartram Ave", "Zip": "19153" }, "geometry": { "type": "Point", "coordinates": [ -75.2449905, 39.8916505 ] } },
{ "type": "Feature", "properties": { "Name": "Wilmington Newark Line", "At_Street": "S. College Ave", "City": "Newark", "County": "Delaware", "Field_1": "Wilmington Newark Line", "Latitude": 39.670255, "Line_Name": "Wilmington Newark Line", "Longitude": -75.752577, "On_Street": "Mopar Dr", "State": "DE", "Station_Na": "Newark", "Stop_ID": 90201, "Street_Add": "10 Mopar Dr &amp; S. College Ave", "Zip": "19711" }, "geometry": { "type": "Point", "coordinates": [ -75.7525769, 39.6702547 ] } },
{ "type": "Feature", "properties": { "Name": "Wilmington Newark Line", "At_Street": "French St", "City": "Wimington", "County": "Delaware", "Field_1": "Wilmington Newark Line", "Latitude": 39.736952, "Line_Name": "Wilmington Newark Line", "Longitude": -75.550934, "On_Street": "E. Front St", "State": "DE", "Station_Na": "Wilmington", "Stop_ID": 90203, "Street_Add": "100 S. French St", "Zip": "19801" }, "geometry": { "type": "Point", "coordinates": [ -75.550934, 39.736952 ] } },
{ "type": "Feature", "properties": { "Name": "Wilmington Newark Line", "At_Street": "Marion Ave", "City": "Claymont", "County": "Delaware", "Field_1": "Wilmington Newark Line", "Latitude": 39.797811, "Line_Name": "Wilmington Newark Line", "Longitude": -75.452077, "On_Street": "Myrtle Ave", "State": "DE", "Station_Na": "Claymont", "Stop_ID": 90204, "Street_Add": "200 Myrtle Ave", "Zip": "19703" }, "geometry": { "type": "Point", "coordinates": [ -75.4520772, 39.7978112 ] } },
{ "type": "Feature", "properties": { "Name": "Wilmington Newark Line", "At_Street": "Washington Ave", "City": "Marcus Hook", "County": "Delaware", "Field_1": "Wilmington Newark Line", "Latitude": 39.821687, "Line_Name": "Wilmington Newark Line", "Longitude": -75.419499, "On_Street": "W. 12th St", "State": "PA", "Station_Na": "Marcus Hook", "Stop_ID": 90205, "Street_Add": "20 W. 12th St", "Zip": "19061" }, "geometry": { "type": "Point", "coordinates": [ -75.4194991, 39.8216869 ] } },
{ "type": "Feature", "properties": { "Name": "Chestnut Hill West Line", "At_Street": "Highland Ave", "City": "Philadelphia", "County": "Delaware", "Field_1": "Chestnut Hill West Line", "Latitude": 40.07013, "Line_Name": "Chestnut Hill West Line", "Longitude": -75.210998, "On_Street": "St. Martins Ln", "State": "PA", "Station_Na": "Highland", "Stop_ID": 90802, "Street_Add": "8452 St. Martins Ln", "Zip": "19118" }, "geometry": { "type": "Point", "coordinates": [ -75.2109982, 40.0701296 ] } },
{ "type": "Feature", "properties": { "Name": "Wilmington Newark Line", "At_Street": "6th St", "City": "Chester", "County": "Delaware", "Field_1": "Wilmington Newark Line", "Latitude": 39.849559, "Line_Name": "Wilmington Newark Line", "Longitude": -75.359924, "On_Street": "Avenue of the States", "State": "PA", "Station_Na": "Chester T.C.", "Stop_ID": 90207, "Street_Add": "550 Avenue of the States", "Zip": "19013" }, "geometry": { "type": "Point", "coordinates": [ -75.3599237, 39.8495586 ] } },
{ "type": "Feature", "properties": { "Name": "Wilmington Newark Line", "At_Street": "Industrial Hwy", "City": "Crum Lynne", "County": "Delaware", "Field_1": "Wilmington Newark Line", "Latitude": 39.85742, "Line_Name": "Wilmington Newark Line", "Longitude": -75.341661, "On_Street": "Saville Ave", "State": "PA", "Station_Na": "Eddystone", "Stop_ID": 90208, "Street_Add": "650 Saville Ave", "Zip": "19022" }, "geometry": { "type": "Point", "coordinates": [ -75.3416609, 39.85742 ] } },
{ "type": "Feature", "properties": { "Name": "Wilmington Newark Line", "At_Street": "Chester Pike", "City": "Ridley Park", "County": "Delaware", "Field_1": "Wilmington Newark Line", "Latitude": 39.871862, "Line_Name": "Wilmington Newark Line", "Longitude": -75.330957, "On_Street": "W. Ridley Ave", "State": "PA", "Station_Na": "Crum Lynne", "Stop_ID": 90209, "Street_Add": "350 W. Ridley Ave", "Zip": "19078" }, "geometry": { "type": "Point", "coordinates": [ -75.3309571, 39.8718619 ] } },
{ "type": "Feature", "properties": { "Name": "Wilmington Newark Line", "At_Street": "Morton Ave", "City": "Ridley Park", "County": "Delaware", "Field_1": "Wilmington Newark Line", "Latitude": 39.880531, "Line_Name": "Wilmington Newark Line", "Longitude": -75.322069, "On_Street": "E. Hinckley Ave", "State": "PA", "Station_Na": "Ridley Park", "Stop_ID": 90210, "Street_Add": "201 E. Hinckley Ave", "Zip": "19078" }, "geometry": { "type": "Point", "coordinates": [ -75.3220693, 39.8805311 ] } },
{ "type": "Feature", "properties": { "Name": "Wilmington Newark Line", "At_Street": "Lincoln Ave", "City": "Propect Park", "County": "Delaware", "Field_1": "Wilmington Newark Line", "Latitude": 39.888143, "Line_Name": "Wilmington Newark Line", "Longitude": -75.309411, "On_Street": "Maryland Ave", "State": "PA", "Station_Na": "Prospect Park", "Stop_ID": 90211, "Street_Add": "749 Maryland Ave", "Zip": "19076" }, "geometry": { "type": "Point", "coordinates": [ -75.3094111, 39.8881433 ] } },
{ "type": "Feature", "properties": { "Name": "Wilmington Newark Line", "At_Street": "Winona Ave", "City": "Norwood", "County": "Delaware", "Field_1": "Wilmington Newark Line", "Latitude": 39.891238, "Line_Name": "Wilmington Newark Line", "Longitude": -75.302146, "On_Street": "Welcome Ave", "State": "PA", "Station_Na": "Norwood", "Stop_ID": 90212, "Street_Add": "498 Welcome Ave", "Zip": "19074" }, "geometry": { "type": "Point", "coordinates": [ -75.3021459, 39.8912376 ] } },
{ "type": "Feature", "properties": { "Name": "Wilmington Newark Line", "At_Street": "Chester Pike", "City": "Glenolden", "County": "Delaware", "Field_1": "Wilmington Newark Line", "Latitude": 39.896223, "Line_Name": "Wilmington Newark Line", "Longitude": -75.290164, "On_Street": "E. Glenolden Ave", "State": "PA", "Station_Na": "Glenolden", "Stop_ID": 90213, "Street_Add": "85 E. Glenolden Ave", "Zip": "19036" }, "geometry": { "type": "Point", "coordinates": [ -75.2901641, 39.8962228 ] } },
{ "type": "Feature", "properties": { "Name": "Wilmington Newark Line", "At_Street": "Elmwood Ave", "City": "Folcroft", "County": "Delaware", "Field_1": "Wilmington Newark Line", "Latitude": 39.900552, "Line_Name": "Wilmington Newark Line", "Longitude": -75.279754, "On_Street": "Baltimore Ave", "State": "PA", "Station_Na": "Folcroft", "Stop_ID": 90214, "Street_Add": "1555 Baltimore Ave", "Zip": "19032" }, "geometry": { "type": "Point", "coordinates": [ -75.2797543, 39.9005521 ] } },
{ "type": "Feature", "properties": { "Name": "Wilmington Newark Line", "At_Street": "Elmwood Ave", "City": "Sharon Hill", "County": "Delaware", "Field_1": "Wilmington Newark Line", "Latitude": 39.904283, "Line_Name": "Wilmington Newark Line", "Longitude": -75.270836, "On_Street": "Sharon Ave", "State": "PA", "Station_Na": "Sharon Hill", "Stop_ID": 90215, "Street_Add": "414 Sharon Ave", "Zip": "19079" }, "geometry": { "type": "Point", "coordinates": [ -75.2708359, 39.904283 ] } },
{ "type": "Feature", "properties": { "Name": "Wilmington Newark Line", "At_Street": "Elmwood Ave", "City": "Sharon Hill", "County": "Delaware", "Field_1": "Wilmington Newark Line", "Latitude": 39.908034, "Line_Name": "Wilmington Newark Line", "Longitude": -75.265, "On_Street": "Oak Ave", "State": "PA", "Station_Na": "Curtis Park", "Stop_ID": 90216, "Street_Add": "400 Oak Ave", "Zip": "19079" }, "geometry": { "type": "Point", "coordinates": [ -75.2650004, 39.9080341 ] } },
{ "type": "Feature", "properties": { "Name": "Wilmington Newark Line", "At_Street": "Pine St", "City": "Darby", "County": "Delaware", "Field_1": "Wilmington Newark Line", "Latitude": 39.912943, "Line_Name": "Wilmington Newark Line", "Longitude": -75.25458, "On_Street": "S. 4th St", "State": "PA", "Station_Na": "Darby", "Stop_ID": 90217, "Street_Add": "399 S. 4th St", "Zip": "19023" }, "geometry": { "type": "Point", "coordinates": [ -75.2545803, 39.9129425 ] } },
{ "type": "Feature", "properties": { "Name": "Warminster Line", "At_Street": "Susquehanna Rd", "City": "Abington", "County": "Montogomery", "Field_1": "Warminster Line", "Latitude": 40.120885, "Line_Name": "Warminster Line", "Longitude": -75.134122, "On_Street": "Easton Rd", "State": "PA", "Station_Na": "Roslyn", "Stop_ID": 90413, "Street_Add": "1095 Easton Rd", "Zip": "19001" }, "geometry": { "type": "Point", "coordinates": [ -75.1341225, 40.1208848 ] } },
{ "type": "Feature", "properties": { "Name": "Warminster Line", "At_Street": "Rockwell Rd", "City": "Willow Grove", "County": "Montogomery", "Field_1": "Warminster Line", "Latitude": 40.133267, "Line_Name": "Warminster Line", "Longitude": -75.118635, "On_Street": "Rubicam Ave", "State": "PA", "Station_Na": "Crestmont", "Stop_ID": 90414, "Street_Add": "2198 Rubicam Ave", "Zip": "19090" }, "geometry": { "type": "Point", "coordinates": [ -75.118635, 40.1332675 ] } },
{ "type": "Feature", "properties": { "Name": "Warminster Line", "At_Street": "Old York Rd", "City": "Willow Grove", "County": "Montogomery", "Field_1": "Warminster Line", "Latitude": 40.143672, "Line_Name": "Warminster Line", "Longitude": -75.114357, "On_Street": "Davisville Rd", "State": "PA", "Station_Na": "Willow Grove", "Stop_ID": 90415, "Street_Add": "215 Davisville Rd (off Old York Rd)", "Zip": "19090" }, "geometry": { "type": "Point", "coordinates": [ -75.114357, 40.1436724 ] } },
{ "type": "Feature", "properties": { "Name": "Warminster Line", "At_Street": "Byberry Rd", "City": "Hatbro", "County": "Bucks", "Field_1": "Warminster Line", "Latitude": 40.175587, "Line_Name": "Warminster Line", "Longitude": -75.102809, "On_Street": "Penn St", "State": "PA", "Station_Na": "Hatboro", "Stop_ID": 90416, "Street_Add": "40 S. Penn St", "Zip": "19040" }, "geometry": { "type": "Point", "coordinates": [ -75.1028089, 40.1755866 ] } },
{ "type": "Feature", "properties": { "Name": "Warminster Line", "At_Street": "Jacksonville Rd", "City": "Warminster", "County": "Bucks", "Field_1": "Warminster Line", "Latitude": 40.195101, "Line_Name": "Warminster Line", "Longitude": -75.089121, "On_Street": "Station Dr", "State": "PA", "Station_Na": "Warminster", "Stop_ID": 90417, "Street_Add": "100 Station Dr", "Zip": "18974" }, "geometry": { "type": "Point", "coordinates": [ -75.0891214, 40.1951014 ] } },
{ "type": "Feature", "properties": { "Name": "Media Elwyn Line", "At_Street": "Middletown Rd", "City": "Media", "County": "Delaware", "Field_1": "Media Elwyn Line", "Latitude": 39.907817, "Line_Name": "Media Elwyn Line", "Longitude": -75.411187, "On_Street": "Elwyn Rd", "State": "PA", "Station_Na": "Elwyn", "Stop_ID": 90301, "Street_Add": "149 Elwyn Rd", "Zip": "19063" }, "geometry": { "type": "Point", "coordinates": [ -75.4111874, 39.907817 ] } },
{ "type": "Feature", "properties": { "Name": "Media Elwyn Line", "At_Street": "S. Orange St", "City": "Media", "County": "Delaware", "Field_1": "Media Elwyn Line", "Latitude": 39.914291, "Line_Name": "Media Elwyn Line", "Longitude": -75.394764, "On_Street": "Media Station Rd", "State": "PA", "Station_Na": "Media", "Stop_ID": 90302, "Street_Add": "309 Media Station Rd", "Zip": "19063" }, "geometry": { "type": "Point", "coordinates": [ -75.3947642, 39.9142912 ] } },
{ "type": "Feature", "properties": { "Name": "Media Elwyn Line", "At_Street": "Woodward Rd", "City": "Media", "County": "Delaware", "Field_1": "Media Elwyn Line", "Latitude": 39.905845, "Line_Name": "Media Elwyn Line", "Longitude": -75.388095, "On_Street": "Manchester Rd", "State": "PA", "Station_Na": "Moylan-Rose Valley", "Stop_ID": 90303, "Street_Add": "4 Manchester Rd", "Zip": "19063" }, "geometry": { "type": "Point", "coordinates": [ -75.388095, 39.9058446 ] } },
{ "type": "Feature", "properties": { "Name": "Media Elwyn Line", "At_Street": "Kershaw Ave", "City": "Wallingford", "County": "Delaware", "Field_1": "Media Elwyn Line", "Latitude": 39.903754, "Line_Name": "Media Elwyn Line", "Longitude": -75.371713, "On_Street": "E. Possum Hollow Rd", "State": "PA", "Station_Na": "Wallingford", "Stop_ID": 90304, "Street_Add": "141 E. Possum Hollow Rd", "Zip": "19086" }, "geometry": { "type": "Point", "coordinates": [ -75.3717128, 39.9037538 ] } },
{ "type": "Feature", "properties": { "Name": "Media Elwyn Line", "At_Street": "S. Chester Rd", "City": "Swarthmore", "County": "Delaware", "Field_1": "Media Elwyn Line", "Latitude": 39.902297, "Line_Name": "Media Elwyn Line", "Longitude": -75.351126, "On_Street": "Park Ave", "State": "PA", "Station_Na": "Swarthmore", "Stop_ID": 90305, "Street_Add": "Chester Rd &amp; Park Ave", "Zip": "19081" }, "geometry": { "type": "Point", "coordinates": [ -75.3511263, 39.9022967 ] } },
{ "type": "Feature", "properties": { "Name": "Media Elwyn Line", "At_Street": "S. Morton Ave", "City": "Morton", "County": "Delaware", "Field_1": "Media Elwyn Line", "Latitude": 39.908042, "Line_Name": "Media Elwyn Line", "Longitude": -75.328338, "On_Street": "Yale Ave", "State": "PA", "Station_Na": "Morton", "Stop_ID": 90306, "Street_Add": "2 S. Morton Ave", "Zip": "19070" }, "geometry": { "type": "Point", "coordinates": [ -75.3283383, 39.9080415 ] } },
{ "type": "Feature", "properties": { "Name": "Media Elwyn Line", "At_Street": "South Ave", "City": "Clifton Heights", "County": "Delaware", "Field_1": "Media Elwyn Line", "Latitude": 39.915742, "Line_Name": "Media Elwyn Line", "Longitude": -75.309844, "On_Street": "Providence Rd", "State": "PA", "Station_Na": "Secane", "Stop_ID": 90307, "Street_Add": "1297 Providence Rd", "Zip": "19018" }, "geometry": { "type": "Point", "coordinates": [ -75.3098435, 39.9157415 ] } },
{ "type": "Feature", "properties": { "Name": "Media Elwyn Line", "At_Street": "Mildred Ave", "City": "Clifton Heights", "County": "Delaware", "Field_1": "Media Elwyn Line", "Latitude": 39.921611, "Line_Name": "Media Elwyn Line", "Longitude": -75.298513, "On_Street": "S. Oak Ave", "State": "PA", "Station_Na": "Primos", "Stop_ID": 90308, "Street_Add": "446 S. Oak Ave", "Zip": "19018" }, "geometry": { "type": "Point", "coordinates": [ -75.2985128, 39.9216107 ] } },
{ "type": "Feature", "properties": { "Name": "Media Elwyn Line", "At_Street": "Madison Rd", "City": "Lansdowne", "County": "Delaware", "Field_1": "Media Elwyn Line", "Latitude": 39.932728, "Line_Name": "Media Elwyn Line", "Longitude": -75.282157, "On_Street": "Walsh Rd", "State": "PA", "Station_Na": "Gladstone", "Stop_ID": 90310, "Street_Add": "198 Walsh Rd", "Zip": "19050" }, "geometry": { "type": "Point", "coordinates": [ -75.282157, 39.9327283 ] } },
{ "type": "Feature", "properties": { "Name": "Media Elwyn Line", "At_Street": "Scottdale Rd", "City": "Lansdowne", "County": "Delaware", "Field_1": "Media Elwyn Line", "Latitude": 39.937282, "Line_Name": "Media Elwyn Line", "Longitude": -75.271569, "On_Street": "S. Lansdowne Ave", "State": "PA", "Station_Na": "Lansdowne", "Stop_ID": 90311, "Street_Add": "45 S. Lansdowne Ave", "Zip": "19050" }, "geometry": { "type": "Point", "coordinates": [ -75.2715689, 39.9372816 ] } },
{ "type": "Feature", "properties": { "Name": "Media Elwyn Line", "At_Street": "Penn St", "City": "Lansdowne", "County": "Delaware", "Field_1": "Media Elwyn Line", "Latitude": 39.939728, "Line_Name": "Media Elwyn Line", "Longitude": -75.255777, "On_Street": "S. Church Ln", "State": "PA", "Station_Na": "Fernwood-Yeadon", "Stop_ID": 90312, "Street_Add": "413 S. Church Ln", "Zip": "19050" }, "geometry": { "type": "Point", "coordinates": [ -75.2557775, 39.9397279 ] } },
{ "type": "Feature", "properties": { "Name": "Media Elwyn Line", "At_Street": "Fernwood St", "City": "Philadelphia", "County": "Delaware", "Field_1": "Media Elwyn Line", "Latitude": 39.944902, "Line_Name": "Media Elwyn Line", "Longitude": -75.238364, "On_Street": "58th St", "State": "PA", "Station_Na": "Angora", "Stop_ID": 90313, "Street_Add": "1099 S. 58th St", "Zip": "19143" }, "geometry": { "type": "Point", "coordinates": [ -75.238364, 39.9449022 ] } },
{ "type": "Feature", "properties": { "Name": "Media Elwyn Line", "At_Street": "Chester Ave", "City": "Philadelphia", "County": "Philadelphia", "Field_1": "Media Elwyn Line", "Latitude": 39.943601, "Line_Name": "Media Elwyn Line", "Longitude": -75.216444, "On_Street": "49th St", "State": "PA", "Station_Na": "49th Street", "Stop_ID": 90314, "Street_Add": "49th St &amp; Chester Ave", "Zip": "19143" }, "geometry": { "type": "Point", "coordinates": [ -75.2164436, 39.9436014 ] } },
{ "type": "Feature", "properties": { "Name": "Joint", "At_Street": "South St", "City": "Philadaelphia", "County": "Philadelphia", "Field_1": "Joint", "Latitude": 39.948161, "Line_Name": "Joint", "Longitude": -75.189973, "On_Street": "Convention Blvd", "State": "PA", "Station_Na": "University City", "Stop_ID": 90406, "Street_Add": "3149 Convention Blvd", "Zip": "19104" }, "geometry": { "type": "Point", "coordinates": [ -75.1899726, 39.9481607 ] } },
{ "type": "Feature", "properties": { "Name": "Joint", "At_Street": "Market St", "City": "Philadaelphia", "County": "Philadelphia", "Field_1": "Joint", "Latitude": 39.956516, "Line_Name": "Joint", "Longitude": -75.181806, "On_Street": "30th St", "State": "PA", "Station_Na": "30th Street Station", "Stop_ID": 90004, "Street_Add": "30th St &amp; Market St", "Zip": "19104" }, "geometry": { "type": "Point", "coordinates": [ -75.1818056, 39.9565162 ] } },
{ "type": "Feature", "properties": { "Name": "West Trenton Line", "At_Street": "Mill Rd", "City": "Jenkintown", "County": "Montgomery", "Field_1": "West Trenton Line", "Latitude": 40.111321, "Line_Name": "West Trenton Line", "Longitude": -75.092485, "On_Street": "Old Valley Rd", "State": "PA", "Station_Na": "Meadowbrook", "Stop_ID": 90317, "Street_Add": "1430 Old Valley Rd", "Zip": "19046" }, "geometry": { "type": "Point", "coordinates": [ -75.092485, 40.1113213 ] } },
{ "type": "Feature", "properties": { "Name": "West Trenton Line", "At_Street": "Welsh Rd", "City": "Huntingdon Valley", "County": "Montgomery", "Field_1": "West Trenton Line", "Latitude": 40.116495, "Line_Name": "West Trenton Line", "Longitude": -75.068629, "On_Street": "Station Ave", "State": "PA", "Station_Na": "Bethayres", "Stop_ID": 90318, "Street_Add": "500 Station Ave", "Zip": "19006" }, "geometry": { "type": "Point", "coordinates": [ -75.0686287, 40.1164954 ] } },
{ "type": "Feature", "properties": { "Name": "West Trenton Line", "At_Street": "Philmont Ave", "City": "Philadelphia", "County": "Philadelphia", "Field_1": "West Trenton Line", "Latitude": 40.127829, "Line_Name": "West Trenton Line", "Longitude": -75.020925, "On_Street": "Byberry Rd", "State": "PA", "Station_Na": "Forest Hills", "Stop_ID": 90320, "Street_Add": "299 Byberry Rd", "Zip": "19116" }, "geometry": { "type": "Point", "coordinates": [ -75.0209251, 40.127829 ] } },
{ "type": "Feature", "properties": { "Name": "West Trenton Line", "At_Street": "Ridge Ave", "City": "Trevose", "County": "Bucks", "Field_1": "West Trenton Line", "Latitude": 40.140084, "Line_Name": "West Trenton Line", "Longitude": -74.982906, "On_Street": "Boundbrook Ave", "State": "PA", "Station_Na": "Trevose", "Stop_ID": 90322, "Street_Add": "1100 Boundbrook Ave", "Zip": "19053" }, "geometry": { "type": "Point", "coordinates": [ -74.9829061, 40.1400843 ] } },
{ "type": "Feature", "properties": { "Name": "West Trenton Line", "At_Street": "Grove Ave", "City": "Trevose", "County": "Bucks", "Field_1": "West Trenton Line", "Latitude": 40.146798, "Line_Name": "West Trenton Line", "Longitude": -74.962328, "On_Street": "E. Bristol Rd", "State": "PA", "Station_Na": "Neshaminy Falls", "Stop_ID": 90323, "Street_Add": "4255 E. Bristol Rd", "Zip": "19053" }, "geometry": { "type": "Point", "coordinates": [ -74.962328, 40.1467979 ] } },
{ "type": "Feature", "properties": { "Name": "West Trenton Line", "At_Street": "Bellevue Ave", "City": "Langhorne", "County": "Bucks", "Field_1": "West Trenton Line", "Latitude": 40.160757, "Line_Name": "West Trenton Line", "Longitude": -74.912752, "On_Street": "Comly Ave", "State": "PA", "Station_Na": "Langhorne", "Stop_ID": 90324, "Street_Add": "137 Comly Ave", "Zip": "19047" }, "geometry": { "type": "Point", "coordinates": [ -74.9127521, 40.1607567 ] } },
{ "type": "Feature", "properties": { "Name": "West Trenton Line", "At_Street": "Butternut Ln", "City": "Langhorne", "County": "Bucks", "Field_1": "West Trenton Line", "Latitude": 40.190859, "Line_Name": "West Trenton Line", "Longitude": -74.890857, "On_Street": "Woodbourne Rd", "State": "PA", "Station_Na": "Woodbourne", "Stop_ID": 90325, "Street_Add": "903 Woodbourne Rd", "Zip": "19047" }, "geometry": { "type": "Point", "coordinates": [ -74.8908571, 40.190859 ] } },
{ "type": "Feature", "properties": { "Name": "West Trenton Line", "At_Street": "S. Main St", "City": "Morrisville", "County": "Bucks", "Field_1": "West Trenton Line", "Latitude": 40.235056, "Line_Name": "West Trenton Line", "Longitude": -74.830946, "On_Street": "Reading Ave", "State": "PA", "Station_Na": "Yardley", "Stop_ID": 90326, "Street_Add": "13 Reading Ave", "Zip": "19067" }, "geometry": { "type": "Point", "coordinates": [ -74.8309456, 40.2350558 ] } },
{ "type": "Feature", "properties": { "Name": "West Trenton Line", "At_Street": "Grand Ave", "City": "Trenton", "County": "Trenton", "Field_1": "West Trenton Line", "Latitude": 40.257309, "Line_Name": "West Trenton Line", "Longitude": -74.815506, "On_Street": "Railroad Ave", "State": "NJ", "Station_Na": "West Trenton", "Stop_ID": 90327, "Street_Add": "3 Railroad Ave", "Zip": "08628" }, "geometry": { "type": "Point", "coordinates": [ -74.8155062, 40.2573093 ] } },
{ "type": "Feature", "properties": { "Name": "Paoli Thorndale Line", "At_Street": "Hazelwood Ave", "City": "Thorndale", "County": "Chester", "Field_1": "Paoli Thorndale Line", "Latitude": 39.992691, "Line_Name": "Paoli Thorndale Line", "Longitude": -75.762733, "On_Street": "S. Bailey Rd", "State": "PA", "Station_Na": "Thorndale", "Stop_ID": 90501, "Street_Add": "201 S. Bailey Rd", "Zip": "19372" }, "geometry": { "type": "Point", "coordinates": [ -75.7627328, 39.9926907 ] } },
{ "type": "Feature", "properties": { "Name": "Paoli Thorndale Line", "At_Street": "St. Joseph Ln", "City": "Downingtown", "County": "Chester", "Field_1": "Paoli Thorndale Line", "Latitude": 40.002079, "Line_Name": "Paoli Thorndale Line", "Longitude": -75.710499, "On_Street": "Viaduct Ave", "State": "PA", "Station_Na": "Downingtown", "Stop_ID": 90502, "Street_Add": "159 Viaduct Ave", "Zip": "19335" }, "geometry": { "type": "Point", "coordinates": [ -75.7104985, 40.0020793 ] } },
{ "type": "Feature", "properties": { "Name": "Paoli Thorndale Line", "At_Street": "S. Whitford Rd", "City": "Exton", "County": "Chester", "Field_1": "Paoli Thorndale Line", "Latitude": 40.014744, "Line_Name": "Paoli Thorndale Line", "Longitude": -75.638359, "On_Street": "Spackman Ln", "State": "PA", "Station_Na": "Whitford", "Stop_ID": 90503, "Street_Add": "401 Spackman Ln", "Zip": "19341" }, "geometry": { "type": "Point", "coordinates": [ -75.6383594, 40.0147439 ] } },
{ "type": "Feature", "properties": { "Name": "Paoli Thorndale Line", "At_Street": "King St", "City": "Malvern", "County": "Chester", "Field_1": "Paoli Thorndale Line", "Latitude": 40.036439, "Line_Name": "Paoli Thorndale Line", "Longitude": -75.515581, "On_Street": "N. Warren Ave", "State": "PA", "Station_Na": "Malvern", "Stop_ID": 90505, "Street_Add": "15 N. Warren Ave (near King St)", "Zip": "19355" }, "geometry": { "type": "Point", "coordinates": [ -75.5155805, 40.036439 ] } },
{ "type": "Feature", "properties": { "Name": "Paoli Thorndale Line", "At_Street": "Lincoln Hwy", "City": "Paoli", "County": "Chester", "Field_1": "Paoli Thorndale Line", "Latitude": 40.042959, "Line_Name": "Paoli Thorndale Line", "Longitude": -75.48373, "On_Street": "N. Valley Rd", "State": "PA", "Station_Na": "Paoli", "Stop_ID": 90506, "Street_Add": "13 N. Valley Rd (near Lincoln Highway)", "Zip": "19301" }, "geometry": { "type": "Point", "coordinates": [ -75.48373, 40.0429593 ] } },
{ "type": "Feature", "properties": { "Name": "Paoli Thorndale Line", "At_Street": "Glenn Ave", "City": "Berwyn", "County": "Chester", "Field_1": "Paoli Thorndale Line", "Latitude": 40.04295, "Line_Name": "Paoli Thorndale Line", "Longitude": -75.460646, "On_Street": "Lancaster Ave", "State": "PA", "Station_Na": "Daylesford", "Stop_ID": 90507, "Street_Add": "1301 Lancaster Ave", "Zip": "19312" }, "geometry": { "type": "Point", "coordinates": [ -75.4606455, 40.04295 ] } },
{ "type": "Feature", "properties": { "Name": "Paoli Thorndale Line", "At_Street": "Main Ave", "City": "Berwyn", "County": "Chester", "Field_1": "Paoli Thorndale Line", "Latitude": 40.048088, "Line_Name": "Paoli Thorndale Line", "Longitude": -75.442473, "On_Street": "E. Lancaster Ave", "State": "PA", "Station_Na": "Berwyn", "Stop_ID": 90508, "Street_Add": "654 E. Lancaster Ave", "Zip": "19312" }, "geometry": { "type": "Point", "coordinates": [ -75.4424729, 40.0480882 ] } },
{ "type": "Feature", "properties": { "Name": "Paoli Thorndale Line", "At_Street": "Strafford Ave", "City": "Wayne", "County": "Chester", "Field_1": "Paoli Thorndale Line", "Latitude": 40.049695, "Line_Name": "Paoli Thorndale Line", "Longitude": -75.403766, "On_Street": "Old Eagle School Rd", "State": "PA", "Station_Na": "Strafford", "Stop_ID": 90510, "Street_Add": "97 Old Eagle School Rd", "Zip": "19087" }, "geometry": { "type": "Point", "coordinates": [ -75.4037656, 40.0496954 ] } },
{ "type": "Feature", "properties": { "Name": "Paoli Thorndale Line", "At_Street": "Station Rd", "City": "Wayne", "County": "Delaware", "Field_1": "Paoli Thorndale Line", "Latitude": 40.045862, "Line_Name": "Paoli Thorndale Line", "Longitude": -75.387329, "On_Street": "N. Wayne Ave", "State": "PA", "Station_Na": "Wayne", "Stop_ID": 90511, "Street_Add": "145 N. Wayne Ave", "Zip": "19087" }, "geometry": { "type": "Point", "coordinates": [ -75.3873288, 40.0458617 ] } },
{ "type": "Feature", "properties": { "Name": "Paoli Thorndale Line", "At_Street": "Randnor Chester Rd", "City": "Wayne", "County": "Delaware", "Field_1": "Paoli Thorndale Line", "Latitude": 40.044734, "Line_Name": "Paoli Thorndale Line", "Longitude": -75.359415, "On_Street": "King of Prussia Rd", "State": "PA", "Station_Na": "Radnor", "Stop_ID": 90513, "Street_Add": "291 King of Prussia Rd", "Zip": "19087" }, "geometry": { "type": "Point", "coordinates": [ -75.3594148, 40.0447342 ] } },
{ "type": "Feature", "properties": { "Name": "Paoli Thorndale Line", "At_Street": "Montrose Ave", "City": "Bryn Mawr", "County": "Philadelphia", "Field_1": "Paoli Thorndale Line", "Latitude": 40.028266, "Line_Name": "Paoli Thorndale Line", "Longitude": -75.327273, "On_Street": "Airdale Rd", "State": "PA", "Station_Na": "Rosemont", "Stop_ID": 90515, "Street_Add": "43 Airdale Rd", "Zip": "19010" }, "geometry": { "type": "Point", "coordinates": [ -75.3272727, 40.0282661 ] } },
{ "type": "Feature", "properties": { "Name": "Paoli Thorndale Line", "At_Street": "Morris Ave", "City": "Bryn Mawr", "County": "Montgomery", "Field_1": "Paoli Thorndale Line", "Latitude": 40.021955, "Line_Name": "Paoli Thorndale Line", "Longitude": -75.315946, "On_Street": "N. Bryn Mawr Ave", "State": "PA", "Station_Na": "Bryn Mawr", "Stop_ID": 90516, "Street_Add": "54 N. Bryn Mawr Ave", "Zip": "19010" }, "geometry": { "type": "Point", "coordinates": [ -75.3159456, 40.0219546 ] } },
{ "type": "Feature", "properties": { "Name": "Paoli Thorndale Line", "At_Street": "Penn Rd", "City": "Wynnewood", "County": "Montgomery", "Field_1": "Paoli Thorndale Line", "Latitude": 40.002831, "Line_Name": "Paoli Thorndale Line", "Longitude": -75.273113, "On_Street": "E. Wynnewood Rd", "State": "PA", "Station_Na": "Wynnewood", "Stop_ID": 90519, "Street_Add": "67 E. Wynnewood Rd", "Zip": "19096" }, "geometry": { "type": "Point", "coordinates": [ -75.2731128, 40.002831 ] } },
{ "type": "Feature", "properties": { "Name": "Paoli Thorndale Line", "At_Street": "N. Narberth Ave", "City": "Narbeth", "County": "Montgomery", "Field_1": "Paoli Thorndale Line", "Latitude": 40.004869, "Line_Name": "Paoli Thorndale Line", "Longitude": -75.261538, "On_Street": "Elmwood Ave", "State": "PA", "Station_Na": "Narbeth", "Stop_ID": 90520, "Street_Add": "211 Elmwood Ave", "Zip": "19072" }, "geometry": { "type": "Point", "coordinates": [ -75.2615384, 40.0048692 ] } },
{ "type": "Feature", "properties": { "Name": "Paoli Thorndale Line", "At_Street": "Hazelhurst Rd", "City": "Merion Station", "County": "Montgomery", "Field_1": "Paoli Thorndale Line", "Latitude": 39.997552, "Line_Name": "Paoli Thorndale Line", "Longitude": -75.251446, "On_Street": "Idris Rd", "State": "PA", "Station_Na": "Merion", "Stop_ID": 90521, "Street_Add": "293 Idris Rd", "Zip": "19066" }, "geometry": { "type": "Point", "coordinates": [ -75.2514458, 39.9975523 ] } },
{ "type": "Feature", "properties": { "Name": "Paoli Thorndale Line", "At_Street": "City Ave", "City": "Merion Station", "County": "Philadelphia", "Field_1": "Paoli Thorndale Line", "Latitude": 39.989951, "Line_Name": "Paoli Thorndale Line", "Longitude": -75.24986, "On_Street": "63rd St", "State": "PA", "Station_Na": "Overbrook", "Stop_ID": 90522, "Street_Add": "2195 N. 63rd St (off City Ave)", "Zip": "19066" }, "geometry": { "type": "Point", "coordinates": [ -75.2498598, 39.9899509 ] } },
{ "type": "Feature", "properties": { "Name": "Joint", "At_Street": "10th St", "City": "Philadelphia", "County": "Philadelphia", "Field_1": "Joint", "Latitude": 40.040689, "Line_Name": "Joint", "Longitude": -75.13482, "On_Street": "Nedro Ave", "State": "PA", "Station_Na": "Fern Rock T.C.", "Stop_ID": 90407, "Street_Add": "900 Nedro Ave", "Zip": "19141" }, "geometry": { "type": "Point", "coordinates": [ -75.13482, 40.0406893 ] } },
{ "type": "Feature", "properties": { "Name": "Joint", "At_Street": "Glenside Ave", "City": "Jenkintown", "County": "Montogomery", "Field_1": "Joint", "Latitude": 40.092712, "Line_Name": "Joint", "Longitude": -75.13754, "On_Street": "Greenwood Ave", "State": "PA", "Station_Na": "Jenkintown-Wyncote", "Stop_ID": 90410, "Street_Add": "2 Greenwood Ave", "Zip": "19046" }, "geometry": { "type": "Point", "coordinates": [ -75.1375399, 40.0927123 ] } },
{ "type": "Feature", "properties": { "Name": "Joint", "At_Street": "S. Easton Rd", "City": "Glenside", "County": "Montogomery", "Field_1": "Joint", "Latitude": 40.101346, "Line_Name": "Joint", "Longitude": -75.153692, "On_Street": "W. Glenside Ave", "State": "PA", "Station_Na": "Glenside", "Stop_ID": 90411, "Street_Add": "49 W. Glenside Ave", "Zip": "19038" }, "geometry": { "type": "Point", "coordinates": [ -75.1536917, 40.1013459 ] } },
{ "type": "Feature", "properties": { "Name": "Lansdale Doylestown Line", "At_Street": "N. Hills Ave", "City": "Glenside", "County": "Montgomery", "Field_1": "Lansdale Doylestown Line", "Latitude": 40.112042, "Line_Name": "Lansdale Doylestown Line", "Longitude": -75.169437, "On_Street": "Station Ave", "State": "PA", "Station_Na": "North Hills", "Stop_ID": 90523, "Street_Add": "85 Station Ave", "Zip": "19038" }, "geometry": { "type": "Point", "coordinates": [ -75.1694372, 40.1120421 ] } },
{ "type": "Feature", "properties": { "Name": "Lansdale Doylestown Line", "At_Street": "Bridge St", "City": "Oreland", "County": "Montgomery", "Field_1": "Lansdale Doylestown Line", "Latitude": 40.11821, "Line_Name": "Lansdale Doylestown Line", "Longitude": -75.183854, "On_Street": "Bruce Rd", "State": "PA", "Station_Na": "Oreland", "Stop_ID": 90524, "Street_Add": "1502 Bruce Rd", "Zip": "19075" }, "geometry": { "type": "Point", "coordinates": [ -75.1838545, 40.1182102 ] } },
{ "type": "Feature", "properties": { "Name": "Lansdale Doylestown Line", "At_Street": "S. Bethlehem Pike", "City": "Fort Washington", "County": "Montgomery", "Field_1": "Lansdale Doylestown Line", "Latitude": 40.135337, "Line_Name": "Lansdale Doylestown Line", "Longitude": -75.211589, "On_Street": "Station Ave", "State": "PA", "Station_Na": "Fort Washington", "Stop_ID": 90525, "Street_Add": "7299 Station Ave", "Zip": "19034" }, "geometry": { "type": "Point", "coordinates": [ -75.2115893, 40.1353367 ] } },
{ "type": "Feature", "properties": { "Name": "Lansdale Doylestown Line", "At_Street": "W. Maple St", "City": "Ambler", "County": "Montgomery", "Field_1": "Lansdale Doylestown Line", "Latitude": 40.152811, "Line_Name": "Lansdale Doylestown Line", "Longitude": -75.224335, "On_Street": "Butler Ave", "State": "PA", "Station_Na": "Ambler", "Stop_ID": 90526, "Street_Add": "35 W. Butler Ave", "Zip": "19002" }, "geometry": { "type": "Point", "coordinates": [ -75.2243347, 40.1528108 ] } },
{ "type": "Feature", "properties": { "Name": "Lansdale Doylestown Line", "At_Street": "Old Penllyn Pike", "City": "Blue Bell", "County": "Montgomery", "Field_1": "Lansdale Doylestown Line", "Latitude": 40.169724, "Line_Name": "Lansdale Doylestown Line", "Longitude": -75.243961, "On_Street": "Pershing Rd", "State": "PA", "Station_Na": "Penllyn", "Stop_ID": 90527, "Street_Add": "908 Pershing Rd", "Zip": "19422" }, "geometry": { "type": "Point", "coordinates": [ -75.2439615, 40.1697242 ] } },
{ "type": "Feature", "properties": { "Name": "Lansdale Doylestown Line", "At_Street": "Railroad Crossing", "City": "Ambler", "County": "Montgomery", "Field_1": "Lansdale Doylestown Line", "Latitude": 40.184801, "Line_Name": "Lansdale Doylestown Line", "Longitude": -75.256914, "On_Street": "Plymouth Rd", "State": "PA", "Station_Na": "Gwynedd Valley", "Stop_ID": 90528, "Street_Add": "521 Plymouth Rd", "Zip": "19002" }, "geometry": { "type": "Point", "coordinates": [ -75.2569135, 40.1848013 ] } },
{ "type": "Feature", "properties": { "Name": "Lansdale Doylestown Line", "At_Street": "Wissahickon Ave", "City": "North Wales", "County": "Montgomery", "Field_1": "Lansdale Doylestown Line", "Latitude": 40.214353, "Line_Name": "Lansdale Doylestown Line", "Longitude": -75.277252, "On_Street": "Beaver St", "State": "PA", "Station_Na": "North Wales", "Stop_ID": 90529, "Street_Add": "605 Beaver St", "Zip": "19454" }, "geometry": { "type": "Point", "coordinates": [ -75.2772523, 40.2143526 ] } },
{ "type": "Feature", "properties": { "Name": "Lansdale Doylestown Line", "At_Street": "Pennbrook Pkwy", "City": "Landsdale", "County": "Montgomery", "Field_1": "Lansdale Doylestown Line", "Latitude": 40.230303, "Line_Name": "Lansdale Doylestown Line", "Longitude": -75.281766, "On_Street": "Church Rd", "State": "PA", "Station_Na": "Pennbrook", "Stop_ID": 90530, "Street_Add": "1114 Church Rd", "Zip": "19446" }, "geometry": { "type": "Point", "coordinates": [ -75.2817657, 40.2303035 ] } },
{ "type": "Feature", "properties": { "Name": "Lansdale Doylestown Line", "At_Street": "Walnut St", "City": "Landsdale", "County": "Montgomery", "Field_1": "Lansdale Doylestown Line", "Latitude": 40.242908, "Line_Name": "Lansdale Doylestown Line", "Longitude": -75.285231, "On_Street": "W. Main St", "State": "PA", "Station_Na": "Lansdale", "Stop_ID": 90531, "Street_Add": "80 W. Main St", "Zip": "19446" }, "geometry": { "type": "Point", "coordinates": [ -75.2852313, 40.2429078 ] } },
{ "type": "Feature", "properties": { "Name": "Lansdale Doylestown Line", "At_Street": "Walnut St", "City": "Landsdale", "County": "Montgomery", "Field_1": "Lansdale Doylestown Line", "Latitude": 40.259504, "Line_Name": "Lansdale Doylestown Line", "Longitude": -75.266311, "On_Street": "Cowpath Rd", "State": "PA", "Station_Na": "Fortuna", "Stop_ID": 90532, "Street_Add": "101 Cowpath Rd", "Zip": "19446" }, "geometry": { "type": "Point", "coordinates": [ -75.266311, 40.259504 ] } },
{ "type": "Feature", "properties": { "Name": "Lansdale Doylestown Line", "At_Street": "Walnut St", "City": "Colmar", "County": "Montgomery", "Field_1": "Lansdale Doylestown Line", "Latitude": 40.268479, "Line_Name": "Lansdale Doylestown Line", "Longitude": -75.254107, "On_Street": "Bethlehem Pike", "State": "PA", "Station_Na": "Colmar", "Stop_ID": 90533, "Street_Add": "Bethlehem Pk &amp; Walnut St", "Zip": "18915" }, "geometry": { "type": "Point", "coordinates": [ -75.2541066, 40.2684786 ] } },
{ "type": "Feature", "properties": { "Name": "Lansdale Doylestown Line", "At_Street": "Main St", "City": "Chalfont", "County": "Bucks", "Field_1": "Lansdale Doylestown Line", "Latitude": 40.287716, "Line_Name": "Lansdale Doylestown Line", "Longitude": -75.210193, "On_Street": "Sunset Ave", "State": "PA", "Station_Na": "Chalfont", "Stop_ID": 90535, "Street_Add": "13 Sunset Ave", "Zip": "18914" }, "geometry": { "type": "Point", "coordinates": [ -75.2101934, 40.287716 ] } },
{ "type": "Feature", "properties": { "Name": "Lansdale Doylestown Line", "At_Street": "Mathews Ave", "City": "Doylestown", "County": "Bucks", "Field_1": "Lansdale Doylestown Line", "Latitude": 40.297484, "Line_Name": "Lansdale Doylestown Line", "Longitude": -75.179665, "On_Street": "S. Tamenend Ave", "State": "PA", "Station_Na": "New Britain", "Stop_ID": 90536, "Street_Add": "Tamenend &amp; Matthews Aves", "Zip": "18901" }, "geometry": { "type": "Point", "coordinates": [ -75.1796647, 40.2974837 ] } },
{ "type": "Feature", "properties": { "Name": "Lansdale Doylestown Line", "At_Street": "Del Val College Campus", "City": "Doylestown", "County": "Bucks", "Field_1": "Lansdale Doylestown Line", "Latitude": 40.297241, "Line_Name": "Lansdale Doylestown Line", "Longitude": -75.161795, "On_Street": "E. Butler Ave", "State": "PA", "Station_Na": "Delaware Valley College", "Stop_ID": 90537, "Street_Add": "700 E. Butler Ave (on campus)", "Zip": "18901" }, "geometry": { "type": "Point", "coordinates": [ -75.161795, 40.2972409 ] } },
{ "type": "Feature", "properties": { "Name": "Lansdale Doylestown Line", "At_Street": "Bridge st", "City": "Doylestown", "County": "Bucks", "Field_1": "Lansdale Doylestown Line", "Latitude": 40.306198, "Line_Name": "Lansdale Doylestown Line", "Longitude": -75.130684, "On_Street": "S. Clinton St", "State": "PA", "Station_Na": "Doylestown", "Stop_ID": 90538, "Street_Add": "130 S. Clinton St", "Zip": "18901" }, "geometry": { "type": "Point", "coordinates": [ -75.1306842, 40.3061984 ] } },
{ "type": "Feature", "properties": { "Name": "Lansdale Doylestown Line", "At_Street": "County Line Rd", "City": "Chalfont", "County": "Montgomery", "Field_1": "Lansdale Doylestown Line", "Latitude": 40.273883, "Line_Name": "Lansdale Doylestown Line", "Longitude": -75.246755, "On_Street": "W. Walnut St", "State": "PA", "Station_Na": "Link Belt", "Stop_ID": 90534, "Street_Add": "3367 E. Walnut St", "Zip": "18915" }, "geometry": { "type": "Point", "coordinates": [ -75.2467554, 40.2738825 ] } },
{ "type": "Feature", "properties": { "Name": "Cynwyd Line", "At_Street": "Conshohocken State Rd", "City": "Bala Cynwyd", "County": "Philadelphia", "Field_1": "Cynwyd Line", "Latitude": 40.006837, "Line_Name": "Cynwyd Line", "Longitude": -75.231841, "On_Street": "Montgomery Ave", "State": "PA", "Station_Na": "Cynwyd", "Stop_ID": 90001, "Street_Add": "1 E. Montgomery Ave", "Zip": "19004" }, "geometry": { "type": "Point", "coordinates": [ -75.2318411, 40.0068367 ] } },
{ "type": "Feature", "properties": { "Name": "Cynwyd Line", "At_Street": "Bala Ave", "City": "Philadelphia", "County": "Philadelphia", "Field_1": "Cynwyd Line", "Latitude": 40.001038, "Line_Name": "Cynwyd Line", "Longitude": -75.227739, "On_Street": "W. City Ave", "State": "PA", "Station_Na": "Bala", "Stop_ID": 90002, "Street_Add": "Bala &amp; City Ave", "Zip": "19131" }, "geometry": { "type": "Point", "coordinates": [ -75.2277387, 40.0010378 ] } },
{ "type": "Feature", "properties": { "Name": "Cynwyd Line", "At_Street": "Bryn Mawr Ave", "City": "Philadelphia", "County": "Philadelphia", "Field_1": "Cynwyd Line", "Latitude": 39.990207, "Line_Name": "Cynwyd Line", "Longitude": -75.225648, "On_Street": "Wynnfield Ave", "State": "PA", "Station_Na": "Wynnefield Avenue", "Stop_ID": 90003, "Street_Add": "5024  Wynnfield Ave", "Zip": "19131" }, "geometry": { "type": "Point", "coordinates": [ -75.2256478, 39.990207 ] } },
{ "type": "Feature", "properties": { "Name": "Joint", "At_Street": "Lehigh Ave", "City": "Philadelphia", "County": "Philadelphia", "Field_1": "Joint", "Latitude": 39.991887, "Line_Name": "Joint", "Longitude": -75.153716, "On_Street": "N. Broad St", "State": "PA", "Station_Na": "North Broad", "Stop_ID": 90008, "Street_Add": "2693 N. Broad St (near Lehigh Ave)", "Zip": "19133" }, "geometry": { "type": "Point", "coordinates": [ -75.1537156, 39.9918874 ] } },
{ "type": "Feature", "properties": { "Name": "Manayunk Norristown Line", "At_Street": "Allegheny Ave", "City": "Philadelphia", "County": "Philadelphia", "Field_1": "Manayunk Norristown Line", "Latitude": 40.003859, "Line_Name": "Manayunk Norristown Line", "Longitude": -75.165426, "On_Street": "22nd St", "State": "PA", "Station_Na": "Allegheny", "Stop_ID": 90218, "Street_Add": "3235 N. 22nd St", "Zip": "19140" }, "geometry": { "type": "Point", "coordinates": [ -75.165426, 40.0038591 ] } },
{ "type": "Feature", "properties": { "Name": "Manayunk Norristown Line", "At_Street": "Cresson St", "City": "Philadelphia", "County": "Philadelphia", "Field_1": "Manayunk Norristown Line", "Latitude": 40.011406, "Line_Name": "Manayunk Norristown Line", "Longitude": -75.192041, "On_Street": "Midvale Ave", "State": "PA", "Station_Na": "East Falls", "Stop_ID": 90219, "Street_Add": "3610 Midvale Ave", "Zip": "19129" }, "geometry": { "type": "Point", "coordinates": [ -75.1920415, 40.0114062 ] } },
{ "type": "Feature", "properties": { "Name": "Manayunk Norristown Line", "At_Street": "Sumac St", "City": "Philadelphia", "County": "Philadelphia", "Field_1": "Manayunk Norristown Line", "Latitude": 40.016567, "Line_Name": "Manayunk Norristown Line", "Longitude": -75.210207, "On_Street": "Rochelle Ave", "State": "PA", "Station_Na": "Wissahickon", "Stop_ID": 90220, "Street_Add": "5100 Rochelle Ave", "Zip": "19128" }, "geometry": { "type": "Point", "coordinates": [ -75.2102068, 40.0165668 ] } },
{ "type": "Feature", "properties": { "Name": "Manayunk Norristown Line", "At_Street": "Cresson St", "City": "Philadelphia", "County": "Philadelphia", "Field_1": "Manayunk Norristown Line", "Latitude": 40.026669, "Line_Name": "Manayunk Norristown Line", "Longitude": -75.224668, "On_Street": "Carson St", "State": "PA", "Station_Na": "Manayunk", "Stop_ID": 90221, "Street_Add": "117 Carson St", "Zip": "19127" }, "geometry": { "type": "Point", "coordinates": [ -75.224668, 40.0266687 ] } },
{ "type": "Feature", "properties": { "Name": "Manayunk Norristown Line", "At_Street": "Parker Ave", "City": "Philadelphia", "County": "Philadelphia", "Field_1": "Manayunk Norristown Line", "Latitude": 40.03403, "Line_Name": "Manayunk Norristown Line", "Longitude": -75.23542, "On_Street": "Umbria St", "State": "PA", "Station_Na": "Ivy Ridge", "Stop_ID": 90222, "Street_Add": "4910 Umbria St", "Zip": "19128" }, "geometry": { "type": "Point", "coordinates": [ -75.2354199, 40.0340303 ] } },
{ "type": "Feature", "properties": { "Name": "Manayunk Norristown Line", "At_Street": "Manor Rd", "City": "Conshohocken", "County": "Montgomery", "Field_1": "Manayunk Norristown Line", "Latitude": 40.058529, "Line_Name": "Manayunk Norristown Line", "Longitude": -75.266396, "On_Street": "River Rd", "State": "PA", "Station_Na": "Miquon", "Stop_ID": 90223, "Street_Add": "1096 River Rd", "Zip": "19428" }, "geometry": { "type": "Point", "coordinates": [ -75.2663959, 40.0585292 ] } },
{ "type": "Feature", "properties": { "Name": "Manayunk Norristown Line", "At_Street": "Hector St", "City": "Conshohocken", "County": "Montgomery", "Field_1": "Manayunk Norristown Line", "Latitude": 40.074216, "Line_Name": "Manayunk Norristown Line", "Longitude": -75.286083, "On_Street": "Station Ave", "State": "PA", "Station_Na": "Spring Mill", "Stop_ID": 90224, "Street_Add": "98 Station Ave (near Hector St)", "Zip": "19428" }, "geometry": { "type": "Point", "coordinates": [ -75.2860832, 40.074216 ] } },
{ "type": "Feature", "properties": { "Name": "Manayunk Norristown Line", "At_Street": "Sweede St", "City": "Norristown", "County": "Montgomery", "Field_1": "Manayunk Norristown Line", "Latitude": 40.112675, "Line_Name": "Manayunk Norristown Line", "Longitude": -75.344044, "On_Street": "E. Lafayette St", "State": "PA", "Station_Na": "Norristown T.C.", "Stop_ID": 90226, "Street_Add": "Lafayette St &amp; Swede St", "Zip": "19401" }, "geometry": { "type": "Point", "coordinates": [ -75.344044, 40.1126753 ] } },
{ "type": "Feature", "properties": { "Name": "Manayunk Norristown Line", "At_Street": "Markley St", "City": "Norristown", "County": "Montgomery", "Field_1": "Manayunk Norristown Line", "Latitude": 40.116949, "Line_Name": "Manayunk Norristown Line", "Longitude": -75.348792, "On_Street": "W. Main St", "State": "PA", "Station_Na": "Main Street", "Stop_ID": 90227, "Street_Add": "305 W. Main St at Markley St", "Zip": "19401" }, "geometry": { "type": "Point", "coordinates": [ -75.3487921, 40.1169489 ] } },
{ "type": "Feature", "properties": { "Name": "Manayunk Norristown Line", "At_Street": "W. Elm St", "City": "Norristown", "County": "Montgomery", "Field_1": "Manayunk Norristown Line", "Latitude": 40.120847, "Line_Name": "Manayunk Norristown Line", "Longitude": -75.345086, "On_Street": "Markley St", "State": "PA", "Station_Na": "Elm Street", "Stop_ID": 90228, "Street_Add": "793 Markley St", "Zip": "19401" }, "geometry": { "type": "Point", "coordinates": [ -75.3450865, 40.1208471 ] } },
{ "type": "Feature", "properties": { "Name": "Trenton Line", "At_Street": "Prospect St", "City": "Bristol", "County": "Bucks", "Field_1": "Trenton Line", "Latitude": 40.104939, "Line_Name": "Trenton Line", "Longitude": -74.85482, "On_Street": "Washington St", "State": "PA", "Station_Na": "Bristol", "Stop_ID": 90703, "Street_Add": "790 Washington St", "Zip": "19007" }, "geometry": { "type": "Point", "coordinates": [ -74.8548198, 40.1049385 ] } },
{ "type": "Feature", "properties": { "Name": "Trenton Line", "At_Street": "Newportville Rd", "City": "Croydon", "County": "Bucks", "Field_1": "Trenton Line", "Latitude": 40.093554, "Line_Name": "Trenton Line", "Longitude": -74.906808, "On_Street": "Bristol Pike", "State": "PA", "Station_Na": "Croydon", "Stop_ID": 90704, "Street_Add": "751 Bristol Pike", "Zip": "19021" }, "geometry": { "type": "Point", "coordinates": [ -74.9068081, 40.0935542 ] } },
{ "type": "Feature", "properties": { "Name": "Trenton Line", "At_Street": "Dunks Ferry Rd", "City": "Bensalem", "County": "Bucks", "Field_1": "Trenton Line", "Latitude": 40.082958, "Line_Name": "Trenton Line", "Longitude": -74.933731, "On_Street": "Street Rd", "State": "PA", "Station_Na": "Eddington", "Stop_ID": 90705, "Street_Add": "1099 Street Rd", "Zip": "19020" }, "geometry": { "type": "Point", "coordinates": [ -74.933731, 40.0829579 ] } },
{ "type": "Feature", "properties": { "Name": "Trenton Line", "At_Street": "I-95", "City": "Bensalem", "County": "Bucks", "Field_1": "Trenton Line", "Latitude": 40.071845, "Line_Name": "Trenton Line", "Longitude": -74.952156, "On_Street": "Station Ave", "State": "PA", "Station_Na": "Cornwells Heights", "Stop_ID": 90706, "Street_Add": "799 Station Ave (off I-95)", "Zip": "19020" }, "geometry": { "type": "Point", "coordinates": [ -74.9521559, 40.0718455 ] } },
{ "type": "Feature", "properties": { "Name": "Trenton Line", "At_Street": "Raoul Wallenberg Ave", "City": "Trenton", "County": "Mercer", "Field_1": "Trenton Line", "Latitude": 40.218523, "Line_Name": "Trenton Line", "Longitude": -74.753869, "On_Street": "S. Clinton Ave", "State": "NJ", "Station_Na": "Trenton Transit Center", "Stop_ID": 90701, "Street_Add": "83 S. Clinton Ave", "Zip": "08609" }, "geometry": { "type": "Point", "coordinates": [ -74.753869, 40.2185233 ] } },
{ "type": "Feature", "properties": { "Name": "Trenton Line", "At_Street": "Grant Ave", "City": "Philadelphia", "County": "Philadelphia", "Field_1": "Trenton Line", "Latitude": 40.054404, "Line_Name": "Trenton Line", "Longitude": -74.984499, "On_Street": "James St", "State": "PA", "Station_Na": "Torresdale", "Stop_ID": 90707, "Street_Add": "9648 James St", "Zip": "19114" }, "geometry": { "type": "Point", "coordinates": [ -74.9844994, 40.0544038 ] } },
{ "type": "Feature", "properties": { "Name": "Trenton Line", "At_Street": "Keystone St", "City": "Philadelphia", "County": "Philadelphia", "Field_1": "Trenton Line", "Latitude": 40.023238, "Line_Name": "Trenton Line", "Longitude": -75.039026, "On_Street": "Disston St", "State": "PA", "Station_Na": "Tacony", "Stop_ID": 90709, "Street_Add": "4938 Disston St", "Zip": "19135" }, "geometry": { "type": "Point", "coordinates": [ -75.0390255, 40.0232383 ] } },
{ "type": "Feature", "properties": { "Name": "Joint", "At_Street": "JFK Blvd", "City": "Philadaelphia", "County": "Philadelphia", "Field_1": "Joint", "Latitude": 39.95399, "Line_Name": "Joint", "Longitude": -75.167471, "On_Street": "16th St", "State": "PA", "Station_Na": "Suburban Station", "Stop_ID": 90005, "Street_Add": "16th St &amp; JFK Blvd", "Zip": "19103" }, "geometry": { "type": "Point", "coordinates": [ -75.1674715, 39.9539903 ] } },
{ "type": "Feature", "properties": { "Name": "Joint", "At_Street": "Market St", "City": "Philadaelphia", "County": "Philadelphia", "Field_1": "Joint", "Latitude": 39.952641, "Line_Name": "Joint", "Longitude": -75.158372, "On_Street": "11th St", "State": "PA", "Station_Na": "Jefferson", "Stop_ID": 90006, "Street_Add": "Market St Between 10th &amp; 12th Sts", "Zip": "19107" }, "geometry": { "type": "Point", "coordinates": [ -75.1583719, 39.9526408 ] } },
{ "type": "Feature", "properties": { "Name": "Chestnut Hill East Line", "At_Street": "Bayton St", "City": "Philadelphia", "County": "Philadelphia", "Field_1": "Chestnut Hill East Line", "Latitude": 40.037838, "Line_Name": "Chestnut Hill East Line", "Longitude": -75.171922, "On_Street": "E. Chelton Ave", "State": "PA", "Station_Na": "Germantown", "Stop_ID": 90713, "Street_Add": "150 E. Chelten Ave", "Zip": "19144" }, "geometry": { "type": "Point", "coordinates": [ -75.171922, 40.0378379 ] } },
{ "type": "Feature", "properties": { "Name": "Chestnut Hill East Line", "At_Street": "Clearview St", "City": "Philadelphia", "County": "Philadelphia", "Field_1": "Chestnut Hill East Line", "Latitude": 40.051093, "Line_Name": "Chestnut Hill East Line", "Longitude": -75.171557, "On_Street": "E. Washington Ln", "State": "PA", "Station_Na": "Washington Lane", "Stop_ID": 90714, "Street_Add": "823 E. Washington Ln", "Zip": "19138" }, "geometry": { "type": "Point", "coordinates": [ -75.1715573, 40.0510932 ] } },
{ "type": "Feature", "properties": { "Name": "Chestnut Hill East Line", "At_Street": "E. Vernon Rd", "City": "Philadelphia", "County": "Philadelphia", "Field_1": "Chestnut Hill East Line", "Latitude": 40.060548, "Line_Name": "Chestnut Hill East Line", "Longitude": -75.178813, "On_Street": "Blakemore St", "State": "PA", "Station_Na": "Stenton", "Stop_ID": 90715, "Street_Add": "6797 Blakemore St", "Zip": "19119" }, "geometry": { "type": "Point", "coordinates": [ -75.1788125, 40.0605477 ] } },
{ "type": "Feature", "properties": { "Name": "Chestnut Hill East Line", "At_Street": "Devon St", "City": "Philadelphia", "County": "Philadelphia", "Field_1": "Chestnut Hill East Line", "Latitude": 40.065231, "Line_Name": "Chestnut Hill East Line", "Longitude": -75.191014, "On_Street": "E. Gowen Ave", "State": "PA", "Station_Na": "Mount Airy", "Stop_ID": 90717, "Street_Add": "149 E. Gowen Ave", "Zip": "19119" }, "geometry": { "type": "Point", "coordinates": [ -75.1910145, 40.0652313 ] } },
{ "type": "Feature", "properties": { "Name": "Chestnut Hill East Line", "At_Street": "E. Willow Grove Ave", "City": "Philadelphia", "County": "Philadelphia", "Field_1": "Chestnut Hill East Line", "Latitude": 40.073466, "Line_Name": "Chestnut Hill East Line", "Longitude": -75.196776, "On_Street": "Wyndmoor St", "State": "PA", "Station_Na": "Wyndmoor", "Stop_ID": 90718, "Street_Add": "246 Wyndmoor St", "Zip": "19118" }, "geometry": { "type": "Point", "coordinates": [ -75.1967755, 40.073466 ] } },
{ "type": "Feature", "properties": { "Name": "Chestnut Hill East Line", "At_Street": "Anderson St", "City": "Philadelphia", "County": "Philadelphia", "Field_1": "Chestnut Hill East Line", "Latitude": 40.077466, "Line_Name": "Chestnut Hill East Line", "Longitude": -75.201846, "On_Street": "E. Gravers Ln", "State": "PA", "Station_Na": "Gravers", "Stop_ID": 90719, "Street_Add": "Gravers Ln &amp; Anderson St", "Zip": "19118" }, "geometry": { "type": "Point", "coordinates": [ -75.2018458, 40.0774657 ] } },
{ "type": "Feature", "properties": { "Name": "Chestnut Hill East Line", "At_Street": "Bethlehem Pike", "City": "Philadelphia", "County": "Philadelphia", "Field_1": "Chestnut Hill East Line", "Latitude": 40.081037, "Line_Name": "Chestnut Hill East Line", "Longitude": -75.207567, "On_Street": "E. Cheastnut Hill Ave", "State": "PA", "Station_Na": "Chestnut Hill East", "Stop_ID": 90720, "Street_Add": "100 E. Chestnut Hill Ave", "Zip": "19118" }, "geometry": { "type": "Point", "coordinates": [ -75.2075673, 40.0810375 ] } },
{ "type": "Feature", "properties": { "Name": "Chestnut Hill West Line", "At_Street": "Germantown Ave", "City": "Philadelphia", "County": "Philadelphia", "Field_1": "Chestnut Hill West Line", "Latitude": 40.076251, "Line_Name": "Chestnut Hill West Line", "Longitude": -75.208481, "On_Street": "W. Evergreen Ave", "State": "PA", "Station_Na": "Chestnut Hill West", "Stop_ID": 90801, "Street_Add": "Germantown &amp; Evergreen Aves", "Zip": "19118" }, "geometry": { "type": "Point", "coordinates": [ -75.2084814, 40.0762508 ] } },
{ "type": "Feature", "properties": { "Name": "Wilmington Newark Line", "At_Street": "6th St", "City": "Chester", "County": "Delaware", "Field_1": "Wilmington Newark Line", "Latitude": 39.83368, "Line_Name": "Wilmington Newark Line", "Longitude": -75.393027, "On_Street": "Highland Ave", "State": "PA", "Station_Na": "Highland Avenue", "Stop_ID": 90206, "Street_Add": "450 Highland Ave", "Zip": "19013" }, "geometry": { "type": "Point", "coordinates": [ -75.3930267, 39.8336799 ] } },
{ "type": "Feature", "properties": { "Name": "Chestnut Hill West Line", "At_Street": "Cresheim Ave", "City": "Philadelphia", "County": "Philadelphia", "Field_1": "Chestnut Hill West Line", "Latitude": 40.057431, "Line_Name": "Chestnut Hill West Line", "Longitude": -75.194893, "On_Street": "W. Allen Ln", "State": "PA", "Station_Na": "Allen Lane", "Stop_ID": 90804, "Street_Add": "Allen Ln &amp; Cresheim St", "Zip": "19119" }, "geometry": { "type": "Point", "coordinates": [ -75.1948935, 40.0574309 ] } },
{ "type": "Feature", "properties": { "Name": "Chestnut Hill West Line", "At_Street": "Emlen st", "City": "Philadelphia", "County": "Philadelphia", "Field_1": "Chestnut Hill West Line", "Latitude": 40.050908, "Line_Name": "Chestnut Hill West Line", "Longitude": -75.191613, "On_Street": "Carpenter Ln", "State": "PA", "Station_Na": "Carpenter", "Stop_ID": 90805, "Street_Add": "310 Carpenter Ln", "Zip": "19119" }, "geometry": { "type": "Point", "coordinates": [ -75.1916131, 40.0509082 ] } },
{ "type": "Feature", "properties": { "Name": "Chestnut Hill West Line", "At_Street": "W. Upsal St", "City": "Philadelphia", "County": "Philadelphia", "Field_1": "Chestnut Hill West Line", "Latitude": 40.04241, "Line_Name": "Chestnut Hill West Line", "Longitude": -75.190192, "On_Street": "Greene St", "State": "PA", "Station_Na": "Upsal", "Stop_ID": 90806, "Street_Add": "6505 Greene St", "Zip": "19119" }, "geometry": { "type": "Point", "coordinates": [ -75.1901916, 40.0424102 ] } },
{ "type": "Feature", "properties": { "Name": "Chestnut Hill West Line", "At_Street": "Wayne Ave", "City": "Philadelphia", "County": "Philadelphia", "Field_1": "Chestnut Hill West Line", "Latitude": 40.035111, "Line_Name": "Chestnut Hill West Line", "Longitude": -75.186949, "On_Street": "W. Tulpehocken St", "State": "PA", "Station_Na": "Tulpehocken", "Stop_ID": 90807, "Street_Add": "333 W. Tulpehocken St", "Zip": "19144" }, "geometry": { "type": "Point", "coordinates": [ -75.1869493, 40.0351114 ] } },
{ "type": "Feature", "properties": { "Name": "Chestnut Hill West Line", "At_Street": "Morris St", "City": "Philadelphia", "County": "Philadelphia", "Field_1": "Chestnut Hill West Line", "Latitude": 40.029994, "Line_Name": "Chestnut Hill West Line", "Longitude": -75.181153, "On_Street": "W. Chelton Ave", "State": "PA", "Station_Na": "Chelten Avenue", "Stop_ID": 90808, "Street_Add": "359 W. Chelten Ave", "Zip": "19144" }, "geometry": { "type": "Point", "coordinates": [ -75.1811528, 40.0299939 ] } },
{ "type": "Feature", "properties": { "Name": "Chestnut Hill West Line", "At_Street": "Queen Ln", "City": "Philadelphia", "County": "Philadelphia", "Field_1": "Chestnut Hill West Line", "Latitude": 40.023157, "Line_Name": "Chestnut Hill West Line", "Longitude": -75.178083, "On_Street": "Wissahickon Ave", "State": "PA", "Station_Na": "Queen Lane", "Stop_ID": 90809, "Street_Add": "Queen Ln &amp; Wissahickon Ave", "Zip": "19144" }, "geometry": { "type": "Point", "coordinates": [ -75.1780828, 40.0231574 ] } },
{ "type": "Feature", "properties": { "Name": "Trenton Line", "At_Street": "Glenwood Ave", "City": "Philadelphia", "County": "Philadelphia", "Field_1": "Trenton Line", "Latitude": 39.997273, "Line_Name": "Trenton Line", "Longitude": -75.15527, "On_Street": "Broad St", "State": "PA", "Station_Na": "North Philadelphia", "Stop_ID": 90810, "Street_Add": "Broad St &amp; Glenwood Ave", "Zip": "19132" }, "geometry": { "type": "Point", "coordinates": [ -75.15527, 39.9972729 ] } },
{ "type": "Feature", "properties": { "Name": "Joint", "At_Street": "10th St", "City": "Philadelphia", "County": "Philadelphia", "Field_1": "Joint", "Latitude": 39.981479, "Line_Name": "Joint", "Longitude": -75.149532, "On_Street": "Berks St", "State": "PA", "Station_Na": "Temple University", "Stop_ID": 90007, "Street_Add": "927 W. Berks St", "Zip": "19122" }, "geometry": { "type": "Point", "coordinates": [ -75.1495318, 39.9814785 ] } },
{ "type": "Feature", "properties": { "Name": "Joint", "At_Street": "Wayne Ave", "City": "Philadaelphia", "County": "Philadelphia", "Field_1": "Joint", "Latitude": 40.022211, "Line_Name": "Joint", "Longitude": -75.160148, "On_Street": "Windrim Ave", "State": "PA", "Station_Na": "Wayne Junction", "Stop_ID": 90009, "Street_Add": "2129 Windrim Ave", "Zip": "19144" }, "geometry": { "type": "Point", "coordinates": [ -75.1601475, 40.0222107 ] } },
{ "type": "Feature", "properties": { "Name": "Fox Chase Line", "At_Street": "Tabor Rd", "City": "Philadelphia", "County": "Philadelphia", "Field_1": "Fox Chase Line", "Latitude": 40.033205, "Line_Name": "Fox Chase Line", "Longitude": -75.122842, "On_Street": "N. Mascher St", "State": "PA", "Station_Na": "Olney", "Stop_ID": 90811, "Street_Add": "5411 N. Mascher St", "Zip": "19120" }, "geometry": { "type": "Point", "coordinates": [ -75.122842, 40.033205 ] } },
{ "type": "Feature", "properties": { "Name": "Fox Chase Line", "At_Street": "Newtown Ave", "City": "Philadelphia", "County": "Philadelphia", "Field_1": "Fox Chase Line", "Latitude": 40.051414, "Line_Name": "Fox Chase Line", "Longitude": -75.103127, "On_Street": "Devereaux Ave", "State": "PA", "Station_Na": "Lawndale", "Stop_ID": 90812, "Street_Add": "105 Devereaux Ave", "Zip": "19111" }, "geometry": { "type": "Point", "coordinates": [ -75.1031271, 40.0514138 ] } },
{ "type": "Feature", "properties": { "Name": "Fox Chase Line", "At_Street": "Old Soldiers Rd", "City": "Philadelphia", "County": "Philadelphia", "Field_1": "Fox Chase Line", "Latitude": 40.0577, "Line_Name": "Fox Chase Line", "Longitude": -75.09302, "On_Street": "Hasbrook Ave", "State": "PA", "Station_Na": "Cheltenham", "Stop_ID": 90813, "Street_Add": "589 Hasbrook Ave", "Zip": "19111" }, "geometry": { "type": "Point", "coordinates": [ -75.0930197, 40.0576996 ] } },
{ "type": "Feature", "properties": { "Name": "Fox Chase Line", "At_Street": "Hasbrook Ave", "City": "Philadelphia", "County": "Philadelphia", "Field_1": "Fox Chase Line", "Latitude": 40.063562, "Line_Name": "Fox Chase Line", "Longitude": -75.086836, "On_Street": "Cottman Ave", "State": "PA", "Station_Na": "Ryers", "Stop_ID": 90814, "Street_Add": "701 Cottman Ave", "Zip": "19111" }, "geometry": { "type": "Point", "coordinates": [ -75.0868364, 40.0635617 ] } },
{ "type": "Feature", "properties": { "Name": "Fox Chase Line", "At_Street": "Elberon Ave", "City": "Philadelphia", "County": "Philadelphia", "Field_1": "Fox Chase Line", "Latitude": 40.075874, "Line_Name": "Fox Chase Line", "Longitude": -75.083508, "On_Street": "Rahwn St", "State": "PA", "Station_Na": "Fox Chase", "Stop_ID": 90815, "Street_Add": "440 Rhawn St", "Zip": "19111" }, "geometry": { "type": "Point", "coordinates": [ -75.0835078, 40.0758744 ] } },
{ "type": "Feature", "properties": { "Name": "Chestnut Hill West Line", "At_Street": "N. Broad St", "City": "Philadelphia", "County": "Philadelphia", "Field_1": "Chestnut Hill West Line", "Latitude": 39.9972, "Line_Name": "Chestnut Hill West Line", "Longitude": -75.156593, "On_Street": "W. Indiana Ave", "State": "PA", "Station_Na": "North Philadelphia", "Stop_ID": 90810, "Street_Add": "1503 W. Indiana Ave", "Zip": "19132" }, "geometry": { "type": "Point", "coordinates": [ -75.1565931, 39.9972003 ] } },
{ "type": "Feature", "properties": { "Name": "Manayunk Norristown Line", "At_Street": "Fayette St", "City": "Conshohocken", "County": "Montgomery", "Field_1": "Manayunk Norristown Line", "Latitude": 40.072115, "Line_Name": "Manayunk Norristown Line", "Longitude": -75.30864, "On_Street": "Washington St", "State": "PA", "Station_Na": "Conshohocken", "Stop_ID": 90225, "Street_Add": "20  Washington St", "Zip": "19428" }, "geometry": { "type": "Point", "coordinates": [ -75.3086404, 40.0721151 ] } },
{ "type": "Feature", "properties": { "Name": "Warminster Line", "At_Street": "Eagle Hill Rd", "City": "Glenside", "County": "Montogomery", "Field_1": "Warminster Line", "Latitude": 40.114179, "Line_Name": "Warminster Line", "Longitude": -75.153145, "On_Street": "Jenkintown Rd", "State": "PA", "Station_Na": "Ardsley", "Stop_ID": 90412, "Street_Add": "2620 Jenkintown Rd", "Zip": "19038" }, "geometry": { "type": "Point", "coordinates": [ -75.1531447, 40.1141795 ] } },
{ "type": "Feature", "properties": { "Name": "West Trenton Line", "At_Street": "Baeder Rd", "City": "Jenkintown", "County": "Montgomery", "Field_1": "West Trenton Line", "Latitude": 40.104341, "Line_Name": "West Trenton Line", "Longitude": -75.124671, "On_Street": "Old York Rd", "State": "PA", "Station_Na": "Noble", "Stop_ID": 90315, "Street_Add": "801 Old York Rd", "Zip": "19046" }, "geometry": { "type": "Point", "coordinates": [ -75.1246708, 40.104341 ] } },
{ "type": "Feature", "properties": { "Name": "West Trenton Line", "At_Street": "Washington Ln", "City": "Jenkintown", "County": "Montgomery", "Field_1": "West Trenton Line", "Latitude": 40.107411, "Line_Name": "West Trenton Line", "Longitude": -75.110531, "On_Street": "Susquehanna Rd", "State": "PA", "Station_Na": "Rydal", "Stop_ID": 90316, "Street_Add": "1470 Susquehanna Rd", "Zip": "19046" }, "geometry": { "type": "Point", "coordinates": [ -75.1105313, 40.1074109 ] } },
{ "type": "Feature", "properties": { "Name": "West Trenton Line", "At_Street": "Philmont Ave", "City": "Huntingdon Valley", "County": "Montgomery", "Field_1": "West Trenton Line", "Latitude": 40.121865, "Line_Name": "West Trenton Line", "Longitude": -75.043786, "On_Street": "Tomlinson Rd", "State": "PA", "Station_Na": "Philmont", "Stop_ID": 90319, "Street_Add": "106 Tomlinson Rd", "Zip": "19006" }, "geometry": { "type": "Point", "coordinates": [ -75.0437863, 40.1218652 ] } },
{ "type": "Feature", "properties": { "Name": "West Trenton Line", "At_Street": "Bustleton Ave", "City": "Philadelphia", "County": "Philadelphia", "Field_1": "West Trenton Line", "Latitude": 40.130643, "Line_Name": "West Trenton Line", "Longitude": -75.012004, "On_Street": "Philmont Ave", "State": "PA", "Station_Na": "Somerton", "Stop_ID": 90321, "Street_Add": "13623 Philmont Ave", "Zip": "19116" }, "geometry": { "type": "Point", "coordinates": [ -75.0120043, 40.1306427 ] } },
{ "type": "Feature", "properties": { "Name": "Trenton Line", "At_Street": "Levittown Pkwy", "City": "Bristol", "County": "Bucks", "Field_1": "Trenton Line", "Latitude": 40.140133, "Line_Name": "Trenton Line", "Longitude": -74.817154, "On_Street": "Bristol Pike", "State": "PA", "Station_Na": "Levittown", "Stop_ID": 90702, "Street_Add": "8301 Bristol Pike", "Zip": "19007" }, "geometry": { "type": "Point", "coordinates": [ -74.8171537, 40.1401332 ] } },
{ "type": "Feature", "properties": { "Name": "Trenton Line", "At_Street": "Tulip St", "City": "Philadelphia", "County": "Philadelphia", "Field_1": "Trenton Line", "Latitude": 40.032502, "Line_Name": "Trenton Line", "Longitude": -75.024069, "On_Street": "Rahwn St", "State": "PA", "Station_Na": "Holmesburg Junction", "Stop_ID": 90708, "Street_Add": "4783 Rhawn St", "Zip": "19136" }, "geometry": { "type": "Point", "coordinates": [ -75.0240694, 40.0325025 ] } },
{ "type": "Feature", "properties": { "Name": "Trenton Line", "At_Street": "Harbison Ave", "City": "Philadelphia", "County": "Philadelphia", "Field_1": "Trenton Line", "Latitude": 40.010668, "Line_Name": "Trenton Line", "Longitude": -75.070014, "On_Street": "Bridge St", "State": "PA", "Station_Na": "Bridesburg", "Stop_ID": 90710, "Street_Add": "2202 Bridge St", "Zip": "19137" }, "geometry": { "type": "Point", "coordinates": [ -75.070014, 40.0106678 ] } },
{ "type": "Feature", "properties": { "Name": "Joint", "At_Street": "Park Ave", "City": "Elkins Park", "County": "Montogomery", "Field_1": "Joint", "Latitude": 40.071288, "Line_Name": "Joint", "Longitude": -75.127665, "On_Street": "Spring Ave", "State": "PA", "Station_Na": "Elkins Park", "Stop_ID": 90409, "Street_Add": "7876 Spring Ave", "Zip": "19027" }, "geometry": { "type": "Point", "coordinates": [ -75.1276652, 40.0712878 ] } },
{ "type": "Feature", "properties": { "Name": "Joint", "At_Street": "Mill Rd", "City": "Elkins Park", "County": "Montogomery", "Field_1": "Joint", "Latitude": 40.059447, "Line_Name": "Joint", "Longitude": -75.129154, "On_Street": "Valley Rd", "State": "PA", "Station_Na": "Melrose Park", "Stop_ID": 90408, "Street_Add": "900 Valley Rd", "Zip": "19027" }, "geometry": { "type": "Point", "coordinates": [ -75.1291543, 40.0594466 ] } },
{ "type": "Feature", "properties": { "Name": "Chestnut Hill East Line", "At_Street": "Armstrong St", "City": "Philadelphia", "County": "Philadelphia", "Field_1": "Chestnut Hill East Line", "Latitude": 40.036182, "Line_Name": "Chestnut Hill East Line", "Longitude": -75.161466, "On_Street": "Belfield Ave", "State": "PA", "Station_Na": "Wister", "Stop_ID": 90712, "Street_Add": "5230 Belfield Ave at Armstrong Ln", "Zip": "19144" }, "geometry": { "type": "Point", "coordinates": [ -75.1614658, 40.0361822 ] } },
{ "type": "Feature", "properties": { "Name": "Chestnut Hill East Line", "At_Street": "E. Mt. Pleasant Ave", "City": "Philadelphia", "County": "Philadelphia", "Field_1": "Chestnut Hill East Line", "Latitude": 40.062773, "Line_Name": "Chestnut Hill East Line", "Longitude": -75.185009, "On_Street": "Devon St", "State": "PA", "Station_Na": "Sedgwick", "Stop_ID": 90716, "Street_Add": "7139 Devon St", "Zip": "19119" }, "geometry": { "type": "Point", "coordinates": [ -75.1850094, 40.0627729 ] } },
{ "type": "Feature", "properties": { "Name": "Chestnut Hill West Line", "At_Street": "Pocono St", "City": "Philadelphia", "County": "Philadelphia", "Field_1": "Chestnut Hill West Line", "Latitude": 40.065785, "Line_Name": "Chestnut Hill West Line", "Longitude": -75.204488, "On_Street": "W. Willow Grove Ave", "State": "PA", "Station_Na": "St. Martins", "Stop_ID": 90803, "Street_Add": "320 W. Willow Grove Ave", "Zip": "19118" }, "geometry": { "type": "Point", "coordinates": [ -75.2044879, 40.0657847 ] } },
{ "type": "Feature", "properties": { "Name": "Paoli Thorndale Line", "At_Street": "Berkley Rd", "City": "Haverford", "County": "Montgomery", "Field_1": "Paoli Thorndale Line", "Latitude": 40.014052, "Line_Name": "Paoli Thorndale Line", "Longitude": -75.300095, "On_Street": "Haverford Station Rd", "State": "PA", "Station_Na": "Haverford", "Stop_ID": 90517, "Street_Add": "43 Haverford Station Rd", "Zip": "19041" }, "geometry": { "type": "Point", "coordinates": [ -75.3000948, 40.0140522 ] } },
{ "type": "Feature", "properties": { "Name": "Paoli Thorndale Line", "At_Street": "Anderson Ave", "City": "Ardmore", "County": "Montgomery", "Field_1": "Paoli Thorndale Line", "Latitude": 40.008368, "Line_Name": "Paoli Thorndale Line", "Longitude": -75.290179, "On_Street": "Station Ave", "State": "PA", "Station_Na": "Ardmore", "Stop_ID": 90518, "Street_Add": "39 Station Rd", "Zip": "19003" }, "geometry": { "type": "Point", "coordinates": [ -75.2901786, 40.0083675 ] } },
{ "type": "Feature", "properties": { "Name": "Paoli Thorndale Line", "At_Street": "County Line Rd", "City": "Villonova", "County": "Delaware", "Field_1": "Paoli Thorndale Line", "Latitude": 40.038673, "Line_Name": "Paoli Thorndale Line", "Longitude": -75.342355, "On_Street": "N. Spring Mill Rd", "State": "PA", "Station_Na": "Villanova", "Stop_ID": 90514, "Street_Add": "308 N. Spring Mill Rd", "Zip": "19085" }, "geometry": { "type": "Point", "coordinates": [ -75.3423554, 40.0386726 ] } },
{ "type": "Feature", "properties": { "Name": "Paoli Thorndale Line", "At_Street": "Lancaster Ave", "City": "Wayne", "County": "Delaware", "Field_1": "Paoli Thorndale Line", "Latitude": 40.044105, "Line_Name": "Paoli Thorndale Line", "Longitude": -75.373495, "On_Street": "Chamounix Rd", "State": "PA", "Station_Na": "St. Davids", "Stop_ID": 90512, "Street_Add": "53 Chamounix Rd (near Lancaster Ave)", "Zip": "19087" }, "geometry": { "type": "Point", "coordinates": [ -75.3734951, 40.0441049 ] } },
{ "type": "Feature", "properties": { "Name": "Paoli Thorndale Line", "At_Street": "Lancaster Ave", "City": "Devon", "County": "Chester", "Field_1": "Paoli Thorndale Line", "Latitude": 40.047383, "Line_Name": "Paoli Thorndale Line", "Longitude": -75.422887, "On_Street": "N. Devon Blvd", "State": "PA", "Station_Na": "Devon", "Stop_ID": 90509, "Street_Add": "1 N. Devon Blvd (off Lancaster Ave)", "Zip": "19333" }, "geometry": { "type": "Point", "coordinates": [ -75.4228866, 40.0473826 ] } },
{ "type": "Feature", "properties": { "Name": "Paoli Thorndale Line", "At_Street": "PA Route 100", "City": "Exton", "County": "Chester", "Field_1": "Paoli Thorndale Line", "Latitude": 40.019397, "Line_Name": "Paoli Thorndale Line", "Longitude": -75.621788, "On_Street": "Walkertown Rd", "State": "PA", "Station_Na": "Exton", "Stop_ID": 90504, "Street_Add": "445 Walkertown Rd (off PA Route 100)", "Zip": "19341" }, "geometry": { "type": "Point", "coordinates": [ -75.621788, 40.0193968 ] } },
{ "type": "Feature", "properties": { "Name": "Wilmington Newark Line", "At_Street": "Ogletown Stanton Rd", "City": "Newark", "County": "New Castle", "Field_1": "Wilmington Newark Line", "Latitude": 39.694534, "Line_Name": "Wilmington Newark Line", "Longitude": -75.673143, "On_Street": "Fairplay Blvd", "State": "DE", "Station_Na": "Churchmans Crossing", "Stop_ID": 90202, "Street_Add": "1 Fairplay Blvd", "Zip": "19713" }, "geometry": { "type": "Point", "coordinates": [ -75.6731429, 39.6945336 ] } },
{ "type": "Feature", "properties": { "Name": "Media Elwyn Line", "At_Street": "Maryland Ave", "City": "Clifton Heights", "County": "Delaware", "Field_1": "Media Elwyn Line", "Latitude": 39.926748, "Line_Name": "Media Elwyn Line", "Longitude": -75.290222, "On_Street": "Springfield Rd", "State": "PA", "Station_Na": "Clifton-Aldan", "Stop_ID": 90309, "Street_Add": "1 Springfield Rd", "Zip": "19018" }, "geometry": { "type": "Point", "coordinates": [ -75.2902217, 39.9267483 ] } },
{ "type": "Feature", "properties": { "Name": "Lansdale Doylestown Line", "At_Street": "Shaw Ave", "City": "Lansdale", "County": "Montgomery", "Field_1": "Lansdale Doylestown Line", "Latitude": 40.250095, "Line_Name": "Lansdale Doylestown Line", "Longitude": -75.279101, "On_Street": "Ninth St", "State": "PA", "Station_Na": "Ninth Street", "Stop_ID": 90539, "Street_Add": "141 W. Ninth St", "Zip": "19446" }, "geometry": { "type": "Point", "coordinates": [ -75.279101, 40.2500949 ] } }
]
}
